{"type":"FeatureCollection","features":[{"type":"Feature","properties":{"RegID":"BM000109","Label":"Tacky's Revolt, 1760","Type":"Revolt","":""},"geometry":{"type":"Point","coordinates":[-0.092,51.5159]}},{"type":"Feature","properties":{"RegID":"BM000127","Label":"Tacky's Revolt, 1760","Type":"Revolt","":""},"geometry":{"type":"Point","coordinates":[-2.437272,50.715684]}},{"type":"Feature","properties":{"RegID":"BM000203","Label":"Vellum","Type":"Escapee","":""},"geometry":{"type":"Point","coordinates":[-0.2494184,51.3526875]}},{"type":"Feature","properties":{"RegID":"BM000208","Label":"Failed British Invasion of Guadeloupe, 1794","Type":"Revolt","":""},"geometry":{"type":"Point","coordinates":[-0.098372051,51.51399883]}},{"type":"Feature","properties":{"RegID":"BM000270","Label":"Second Brigands War","Type":"Revolt","":""},"geometry":{"type":"Point","coordinates":[-4.251331996,55.86092404]}},{"type":"Feature","properties":{"RegID":"BM000279","Label":"London, Unnamed Enslaved Man","Type":"Escapee","":""},"geometry":{"type":"Point","coordinates":[-4.114850022,57.59099229]}},{"type":"Feature","properties":{"RegID":"BM000300","Label":"Fedon's Rebellion, 1795","Type":"Revolt","":""},"geometry":{"type":"Point","coordinates":[-2.8014391,55.9781568]}},{"type":"Feature","properties":{"RegID":"BM000315","Label":"Fedon's Rebellion, 1795","Type":"Revolt","":""},"geometry":{"type":"Point","coordinates":[-3.0836963,56.3359196]}},{"type":"Feature","properties":{"RegID":"BM000346","Label":"Tacky's Revolt, 1760","Type":"Revolt","":""},"geometry":{"type":"Point","coordinates":[-0.151539,51.522838]}},{"type":"Feature","properties":{"RegID":"BM000387","Label":"Tacky's Revolt, 1760","Type":"Revolt","":""},"geometry":{"type":"Point","coordinates":[-3.20505,55.94965]}},{"type":"Feature","properties":{"RegID":"BM000459","Label":"Bussa's Rebellion, 1816","Type":"Revolt","":""},"geometry":{"type":"Point","coordinates":[-2.084183881,51.87300046]}},{"type":"Feature","properties":{"RegID":"BM000490","Label":"Demerara Slave Rebellion, 1823","Type":"Revolt","":""},"geometry":{"type":"Point","coordinates":[-0.127399847,51.4993619]}},{"type":"Feature","properties":{"RegID":"BM000504","Label":"Demerara Slave Rebellion, 1823","Type":"Revolt","":""},"geometry":{"type":"Point","coordinates":[-4.249866,55.860391]}},{"type":"Feature","properties":{"RegID":"BM000565","Label":"Demaine","Type":"Escapee","":""},"geometry":{"type":"Point","coordinates":[-0.005285494,51.12428114]}},{"type":"Feature","properties":{"RegID":"BM000645","Label":"Anne Bonny and Mary Read","Type":"Escapee","":""},"geometry":{"type":"Point","coordinates":[-0.057834,51.503193]}},{"type":"Feature","properties":{"RegID":"BM000722","Label":"Unnamed Enslaved Man","Type":"Escapee","":""},"geometry":{"type":"Point","coordinates":[-2.15527,55.88599]}},{"type":"Feature","properties":{"RegID":"BM000783","Label":"65 Escaped Pirates","Type":"Escapee","":""},"geometry":{"type":"Point","coordinates":[-4.9388628,51.922344]}},{"type":"Feature","properties":{"RegID":"BM000848","Label":"Demerara Slave Rebellion, 1823","Type":"Revolt","":""},"geometry":{"type":"Point","coordinates":[-0.217254260678189,51.5283201661441]}},{"type":"Feature","properties":{"RegID":"BM000883","Label":"Andrew","Type":"Escapee","":""},"geometry":{"type":"Point","coordinates":[-2.35877751534402,51.3820299860546]}},{"type":"Feature","properties":{"RegID":"BM000880","Label":"Dundee","Type":"Escapee","":""},"geometry":{"type":"Point","coordinates":[-2.34688932883198,51.3735575327239]}},{"type":"Feature","properties":{"RegID":"BM000879","Label":"Unnamed Enslaved Man","Type":"Escapee","":""},"geometry":{"type":"Point","coordinates":[-0.165418609620487,51.5138628143988]}},{"type":"Feature","properties":{"RegID":"BM000878","Label":"Caesar, Will, Dick, Port Royal and Valentine","Type":"Escapee","":""},"geometry":{"type":"Point","coordinates":[-5.06774775086705,50.1588450584897]}},{"type":"Feature","properties":{"RegID":"BM000877","Label":"James","Type":"Escapee","":""},"geometry":{"type":"Point","coordinates":[-2.61109763862391,51.4595766946634]}},{"type":"Feature","properties":{"RegID":"BM000874","Label":"Unnamed Enslaved Man","Type":"Escapee","":""},"geometry":{"type":"Point","coordinates":[-2.32112095397204,51.4105427055316]}},{"type":"Feature","properties":{"RegID":"BM000873","Label":"Tacky's Revolt, 1760","Type":"Revolt","":""},"geometry":{"type":"Point","coordinates":[-0.127342215343771,51.5000507477828]}},{"type":"Feature","properties":{"RegID":"BM000872","Label":"Tacky's Revolt, 1760","Type":"Revolt","":""},"geometry":{"type":"Point","coordinates":[1.26563396931246,52.9043311697564]}},{"type":"Feature","properties":{"RegID":"BM000871","Label":"1801 Tobago Slave Conspiracy","Type":"Revolt","":""},"geometry":{"type":"Point","coordinates":[-3.20634146931246,55.9499518861873]}},{"type":"Feature","properties":{"RegID":"BM000876","Label":"Susannah","Type":"Escapee","":""},"geometry":{"type":"Point","coordinates":[-0.0445874071458698,51.5232500695369]}},{"type":"Feature","properties":{"RegID":"BM000869","Label":"Tacky's Revolt, 1760","Type":"Revolt","":""},"geometry":{"type":"Point","coordinates":[-1.23867921534377,53.0780131246254]}},{"type":"Feature","properties":{"RegID":"BM000870","Label":"Tacky's Revolt, 1760","Type":"Revolt","":""},"geometry":{"type":"Point","coordinates":[-0.289426123281143,51.7033901147944]}},{"type":"Feature","properties":{"RegID":"BM000885","Label":"Mars, March and Phoebe","Type":"Escapee","":""},"geometry":{"type":"Point","coordinates":[-0.217490292064137,51.5287340242333]}},{"type":"Feature","properties":{"RegID":"BM000886","Label":"Charles","Type":"Escapee","":""},"geometry":{"type":"Point","coordinates":[-0.0926547846559772,51.5020188476857]}},{"type":"Feature","properties":{"RegID":"BM000889","Label":"Ajax, Club and Claret","Type":"Escapee","":""},"geometry":{"type":"Point","coordinates":[-0.0995032386239087,51.5193752279822]}},{"type":"Feature","properties":{"RegID":"BM000890","Label":"Moll","Type":"Escapee","":""},"geometry":{"type":"Point","coordinates":[-0.405380730688046,51.2026376047186]}},{"type":"Feature","properties":{"RegID":"BM000891","Label":"Moll","Type":"Escapee","":""},"geometry":{"type":"Point","coordinates":[-0.126237715871726,51.5094719069484]}},{"type":"Feature","properties":{"RegID":"BM000895","Label":"Budget or Henry","Type":"Escapee","":""},"geometry":{"type":"Point","coordinates":[-1.23319183161381,50.8492211179745]}},{"type":"Feature","properties":{"RegID":"BM000897","Label":"Will","Type":"Escapee","":""},"geometry":{"type":"Point","coordinates":[-2.96708814603207,53.4469289399778]}},{"type":"Feature","properties":{"RegID":"BM000907","Label":"Dundee","Type":"Escapee","":""},"geometry":{"type":"Point","coordinates":[-2.22066358465598,52.1893441757333]}}]}